[{
  "_id": {
    "$oid": "663860514500011bee473cc3"
  },
  "idBien": 1,
  "commune": "Paris",
  "rue": "Rue de Rivoli",
  "cp": "75001",
  "nbCouchages": 2,
  "nbChambres": 1,
  "distance": 1000,
  "prix": 100,
  "mail": "john.doe@example.com",
  "image": "assets/images/image-1.png",
  "lat": 48.8566,
  "lng": 2.3522
},
{
  "_id": {
    "$oid": "663860514500011bee473cc4"
  },
  "idBien": 2,
  "commune": "Lyon",
  "rue": "Rue de la République",
  "cp": "69001",
  "nbCouchages": 4,
  "nbChambres": 2,
  "distance": 2000,
  "prix": 150,
  "mail": "jane.smith@example.com",
  "image": "assets/images/image-2.png",
  "lat": 45.764,
  "lng": 4.8357
},
{
  "_id": {
    "$oid": "663860514500011bee473cc5"
  },
  "idBien": 3,
  "commune": "Marseille",
  "rue": "Avenue du Prado",
  "cp": "13006",
  "nbCouchages": 3,
  "nbChambres": 1,
  "distance": 1500,
  "prix": 120,
  "mail": "alice.johnson@example.com",
  "image": "assets/images/image-3.png",
  "lat": 43.2965,
  "lng": 5.3698
},
{
  "_id": {
    "$oid": "663860514500011bee473cc6"
  },
  "idBien": 4,
  "commune": "Bordeaux",
  "rue": "Rue Sainte-Catherine",
  "cp": "33000",
  "nbCouchages": 2,
  "nbChambres": 1,
  "distance": 800,
  "prix": 90,
  "mail": "bob.williams@example.com",
  "image": "assets/images/image-4.png",
  "lat": 44.8378,
  "lng": -0.5792
},
{
  "_id": {
    "$oid": "663860514500011bee473cc7"
  },
  "idBien": 5,
  "commune": "Lille",
  "rue": "Grand Place",
  "cp": "59000",
  "nbCouchages": 6,
  "nbChambres": 3,
  "distance": 1200,
  "prix": 200,
  "mail": "emily.brown@example.com",
  "image": "assets/images/image-5.png",
  "lat": 50.6292,
  "lng": 3.0573
},
{
  "_id": {
    "$oid": "663860514500011bee473cc8"
  },
  "idBien": 6,
  "commune": "Toulouse",
  "rue": "Place du Capitole",
  "cp": "31000",
  "nbCouchages": 4,
  "nbChambres": 2,
  "distance": 1800,
  "prix": 160,
  "mail": "john.doe@example.com",
  "image": "assets/images/image-6.png",
  "lat": 43.6047,
  "lng": 1.4442
},
{
  "_id": {
    "$oid": "663860514500011bee473cc9"
  },
  "idBien": 7,
  "commune": "Nantes",
  "rue": "Rue Crébillon",
  "cp": "44000",
  "nbCouchages": 2,
  "nbChambres": 1,
  "distance": 900,
  "prix": 95,
  "mail": "jane.smith@example.com",
  "image": "assets/images/image-7.png",
  "lat": 47.2184,
  "lng": -1.5536
},
{
  "_id": {
    "$oid": "663860514500011bee473cca"
  },
  "idBien": 8,
  "commune": "Strasbourg",
  "rue": "Rue du Vieux Marché aux Poissons",
  "cp": "67000",
  "nbCouchages": 3,
  "nbChambres": 1,
  "distance": 1100,
  "prix": 110,
  "mail": "alice.johnson@example.com",
  "image": "assets/images/image-8.png",
  "lat": 48.5734,
  "lng": 7.7521
},
{
  "_id": {
    "$oid": "663860514500011bee473ccb"
  },
  "idBien": 9,
  "commune": "Nice",
  "rue": "Promenade des Anglais",
  "cp": "06000",
  "nbCouchages": 2,
  "nbChambres": 1,
  "distance": 1300,
  "prix": 130,
  "mail": "bob.williams@example.com",
  "image": "assets/images/image-9.png",
  "lat": 43.7102,
  "lng": 7.262
},
{
  "_id": {
    "$oid": "663860514500011bee473ccc"
  },
  "idBien": 10,
  "commune": "Montpellier",
  "rue": "Place de la Comédie",
  "cp": "34000",
  "nbCouchages": 5,
  "nbChambres": 3,
  "distance": 1400,
  "prix": 180,
  "mail": "emily.brown@example.com",
  "image": "assets/images/image-10.png",
  "lat": 43.6109,
  "lng": 3.8767
},
{
  "_id": {
    "$oid": "663860514500011bee473ccd"
  },
  "idBien": 11,
  "commune": "Rennes",
  "rue": "Rue de la Visitation",
  "cp": "35000",
  "nbCouchages": 3,
  "nbChambres": 2,
  "distance": 800,
  "prix": 120,
  "mail": "john.doe@example.com",
  "image": "assets/images/image-11.png",
  "lat": 48.1173,
  "lng": -1.6778
},
{
  "_id": {
    "$oid": "663860514500011bee473cce"
  },
  "idBien": 12,
  "commune": "Brest",
  "rue": "Rue de Siam",
  "cp": "29200",
  "nbCouchages": 4,
  "nbChambres": 2,
  "distance": 1200,
  "prix": 140,
  "mail": "jane.smith@example.com",
  "image": "assets/images/image-12.png",
  "lat": 48.3904,
  "lng": -4.4861
},
{
  "_id": {
    "$oid": "663860514500011bee473ccf"
  },
  "idBien": 13,
  "commune": "Saint-Étienne",
  "rue": "Rue de la République",
  "cp": "42000",
  "nbCouchages": 2,
  "nbChambres": 1,
  "distance": 1000,
  "prix": 90,
  "mail": "alice.johnson@example.com",
  "image": "assets/images/image-13.png",
  "lat": 45.4397,
  "lng": 4.3872
},
{
  "_id": {
    "$oid": "663860514500011bee473cd0"
  },
  "idBien": 14,
  "commune": "Grenoble",
  "rue": "Rue Félix Poulat",
  "cp": "38000",
  "nbCouchages": 5,
  "nbChambres": 3,
  "distance": 1500,
  "prix": 180,
  "mail": "bob.williams@example.com",
  "image": "assets/images/image-14.png",
  "lat": 45.1885,
  "lng": 5.7245
},
{
  "_id": {
    "$oid": "663860514500011bee473cd1"
  },
  "idBien": 15,
  "commune": "Reims",
  "rue": "Rue de Vesle",
  "cp": "51100",
  "nbCouchages": 2,
  "nbChambres": 1,
  "distance": 700,
  "prix": 100,
  "mail": "emily.brown@example.com",
  "image": "assets/images/image-15.png",
  "lat": 49.2583,
  "lng": 4.0317
},
{
  "_id": {
    "$oid": "663860514500011bee473cd2"
  },
  "idBien": 16,
  "commune": "Dijon",
  "rue": "Rue de la Liberté",
  "cp": "21000",
  "nbCouchages": 3,
  "nbChambres": 2,
  "distance": 900,
  "prix": 130,
  "mail": "john.doe@example.com",
  "image": "assets/images/image-16.png",
  "lat": 47.322,
  "lng": 5.0415
},
{
  "_id": {
    "$oid": "663860514500011bee473cd3"
  },
  "idBien": 17,
  "commune": "Le Havre",
  "rue": "Rue de Paris",
  "cp": "76600",
  "nbCouchages": 4,
  "nbChambres": 2,
  "distance": 1200,
  "prix": 150,
  "mail": "jane.smith@example.com",
  "image": "assets/images/image-17.png",
  "lat": 49.4938,
  "lng": 0.1077
},
{
  "_id": {
    "$oid": "663860514500011bee473cd4"
  },
  "idBien": 18,
  "commune": "Toulon",
  "rue": "Avenue de la République",
  "cp": "83000",
  "nbCouchages": 3,
  "nbChambres": 1,
  "distance": 1100,
  "prix": 110,
  "mail": "alice.johnson@example.com",
  "image": "assets/images/image-18.png",
  "lat": 43.1242,
  "lng": 5.928
},
{
  "_id": {
    "$oid": "663860514500011bee473cd5"
  },
  "idBien": 19,
  "commune": "Angers",
  "rue": "Boulevard du Roi René",
  "cp": "49000",
  "nbCouchages": 2,
  "nbChambres": 1,
  "distance": 800,
  "prix": 95,
  "mail": "bob.williams@example.com",
  "image": "assets/images/image-19.png",
  "lat": 47.4784,
  "lng": -0.5632
},
{
  "_id": {
    "$oid": "663860514500011bee473cd6"
  },
  "idBien": 20,
  "commune": "Limoges",
  "rue": "Avenue Garibaldi",
  "cp": "87000",
  "nbCouchages": 6,
  "nbChambres": 3,
  "distance": 1300,
  "prix": 200,
  "mail": "emily.brown@example.com",
  "image": "assets/images/image-20.png",
  "lat": 45.8336,
  "lng": 1.2611
},
{
  "_id": {
    "$oid": "663860514500011bee473cd7"
  },
  "idBien": 11,
  "commune": "Montpellier",
  "rue": "Rue de la Loge",
  "cp": "34000",
  "nbCouchages": 3,
  "nbChambres": 2,
  "distance": 900,
  "prix": 130,
  "mail": "john.doe@example.com",
  "image": "assets/images/image-21.png",
  "lat": 43.6109,
  "lng": 3.8767
},
{
  "_id": {
    "$oid": "663860514500011bee473cd8"
  },
  "idBien": 12,
  "commune": "Montpellier",
  "rue": "Rue de l'Ancien Courrier",
  "cp": "34000",
  "nbCouchages": 4,
  "nbChambres": 2,
  "distance": 1200,
  "prix": 150,
  "mail": "jane.smith@example.com",
  "image": "assets/images/image-22.png",
  "lat": 43.6109,
  "lng": 3.8767
},
{
  "_id": {
    "$oid": "663860514500011bee473cd9"
  },
  "idBien": 13,
  "commune": "Montpellier",
  "rue": "Rue de l'Université",
  "cp": "34000",
  "nbCouchages": 2,
  "nbChambres": 1,
  "distance": 800,
  "prix": 110,
  "mail": "alice.johnson@example.com",
  "image": "assets/images/image-23.png",
  "lat": 43.6109,
  "lng": 3.8767
},
{
  "_id": {
    "$oid": "663860514500011bee473cda"
  },
  "idBien": 14,
  "commune": "Montpellier",
  "rue": "Rue Saint-Guilhem",
  "cp": "34000",
  "nbCouchages": 5,
  "nbChambres": 3,
  "distance": 1500,
  "prix": 180,
  "mail": "bob.williams@example.com",
  "image": "assets/images/image-24.png",
  "lat": 43.6109,
  "lng": 3.8767
},
{
  "_id": {
    "$oid": "663860514500011bee473cdb"
  },
  "idBien": 15,
  "commune": "Montpellier",
  "rue": "Rue de l'Aiguillerie",
  "cp": "34000",
  "nbCouchages": 2,
  "nbChambres": 1,
  "distance": 1000,
  "prix": 120,
  "mail": "emily.brown@example.com",
  "image": "assets/images/image-25.png",
  "lat": 43.6109,
  "lng": 3.8767
},
{
  "_id": {
    "$oid": "663860514500011bee473cdc"
  },
  "idBien": 16,
  "commune": "Paris",
  "rue": "Avenue des Champs-Élysées",
  "cp": "75008",
  "nbCouchages": 4,
  "nbChambres": 2,
  "distance": 1200,
  "prix": 250,
  "mail": "john.doe@example.com",
  "image": "assets/images/image-26.png",
  "lat": 48.8738,
  "lng": 2.295
},
{
  "_id": {
    "$oid": "663860514500011bee473cdd"
  },
  "idBien": 17,
  "commune": "Paris",
  "rue": "Rue du Faubourg Saint-Honoré",
  "cp": "75001",
  "nbCouchages": 3,
  "nbChambres": 1,
  "distance": 1000,
  "prix": 180,
  "mail": "jane.smith@example.com",
  "image": "assets/images/image-27.png",
  "lat": 48.8698,
  "lng": 2.3187
},
{
  "_id": {
    "$oid": "663860514500011bee473cde"
  },
  "idBien": 18,
  "commune": "Paris",
  "rue": "Rue de Rivoli",
  "cp": "75004",
  "nbCouchages": 2,
  "nbChambres": 1,
  "distance": 800,
  "prix": 150,
  "mail": "alice.johnson@example.com",
  "image": "assets/images/image-28.png",
  "lat": 48.8584,
  "lng": 2.3505
},
{
  "_id": {
    "$oid": "663860514500011bee473cdf"
  },
  "idBien": 19,
  "commune": "Paris",
  "rue": "Boulevard Saint-Germain",
  "cp": "75006",
  "nbCouchages": 3,
  "nbChambres": 2,
  "distance": 1100,
  "prix": 200,
  "mail": "bob.williams@example.com",
  "image": "assets/images/image-29.png",
  "lat": 48.8534,
  "lng": 2.3433
},
{
  "_id": {
    "$oid": "663860514500011bee473ce0"
  },
  "idBien": 20,
  "commune": "Paris",
  "rue": "Rue de la Paix",
  "cp": "75002",
  "nbCouchages": 2,
  "nbChambres": 1,
  "distance": 900,
  "prix": 180,
  "mail": "emily.brown@example.com",
  "image": "assets/images/image-30.png",
  "lat": 48.8684,
  "lng": 2.3314
}]